[{"id":130542,"name":"Huyện Đắk Glei","latitude":"15.11358000","longitude":"107.75093000"},{"id":130543,"name":"Huyện Đắk Hà","latitude":"14.60326000","longitude":"107.98547000"},{"id":130545,"name":"Huyện Đắk Tô","latitude":"14.70087000","longitude":"107.80816000"},{"id":130321,"name":"Huyện Ia H'Drai","latitude":"14.06032000","longitude":"107.46243000"},{"id":130332,"name":"Huyện Kon Plông","latitude":"14.75620000","longitude":"108.32057000"},{"id":130388,"name":"Huyện Ngọc Hồi","latitude":"14.71940000","longitude":"107.62636000"},{"id":130419,"name":"Huyện Sa Thầy","latitude":"14.32050000","longitude":"107.59862000"},{"id":130565,"name":"Kon Tum","latitude":"14.35451000","longitude":"108.00759000"}]