[{"id":130555,"name":"Hà Giang","latitude":"22.82333000","longitude":"104.98357000"},{"id":130235,"name":"Huyện Bắc Mê","latitude":"22.75477000","longitude":"105.29023000"},{"id":130236,"name":"Huyện Bắc Quang","latitude":"22.42301000","longitude":"104.91831000"},{"id":130548,"name":"Huyện Đồng Văn","latitude":"23.25449000","longitude":"105.27626000"},{"id":130406,"name":"Huyện Quang Bình","latitude":"22.41507000","longitude":"104.66018000"},{"id":130508,"name":"Huyện Vị Xuyên","latitude":"22.73096000","longitude":"104.90827000"},{"id":130511,"name":"Huyện Xín Mần","latitude":"22.64148000","longitude":"104.52089000"},{"id":130516,"name":"Huyện Yên Minh","latitude":"23.06992000","longitude":"105.17865000"}]