[{"id":130209,"name":"Huyện An Lão","latitude":"14.55676000","longitude":"108.80100000"},{"id":130298,"name":"Huyện Hoài Nhơn","latitude":"14.50535000","longitude":"109.02315000"},{"id":130397,"name":"Huyện Phù Mỹ","latitude":"14.22304000","longitude":"109.08611000"},{"id":130490,"name":"Huyện Tây Sơn","latitude":"13.94306000","longitude":"108.87999000"},{"id":130476,"name":"Huyện Tuy Phước","latitude":"13.84564000","longitude":"109.15275000"},{"id":130503,"name":"Huyện Vĩnh Thạnh","latitude":"14.21100000","longitude":"108.74389000"},{"id":130584,"name":"Qui Nhon","latitude":"13.77648000","longitude":"109.22367000"}]