[{"id":130297,"name":"Huyện Hoa Lư","latitude":"20.25391000","longitude":"105.90789000"},{"id":130327,"name":"Huyện Kim Sơn","latitude":"20.06034000","longitude":"106.09863000"},{"id":130390,"name":"Huyện Nho Quan","latitude":"20.27606000","longitude":"105.75442000"},{"id":130513,"name":"Huyện Yên Khánh","latitude":"20.19017000","longitude":"106.09605000"},{"id":130517,"name":"Huyện Yên Mô","latitude":"20.12984000","longitude":"106.00199000"},{"id":130577,"name":"Ninh Bình","latitude":"20.25809000","longitude":"105.97965000"}]