[{"id":130187,"name":"Cà Mau","latitude":"9.17682000","longitude":"105.15242000"},{"id":130267,"name":"Huyện Cái Nước","latitude":"9.00094000","longitude":"105.04201000"},{"id":130540,"name":"Huyện Đầm Dơi","latitude":"8.96029000","longitude":"105.24107000"},{"id":130204,"name":"Huyen Nam Can","latitude":"8.81531000","longitude":"105.05574000"},{"id":130453,"name":"Huyện Thới Bình","latitude":"9.35790000","longitude":"105.16023000"}]