[{"id":151732,"name":"Abella de la Conca","latitude":"0.00000000","longitude":"0.00000000"},{"id":38571,"name":"Àger","latitude":"42.00000000","longitude":"0.76667000"},{"id":31948,"name":"Agramunt","latitude":"41.78686000","longitude":"1.09683000"},{"id":31983,"name":"Aitona","latitude":"41.48333000","longitude":"0.46667000"},{"id":151733,"name":"Alamús Els","latitude":"0.00000000","longitude":"0.00000000"},{"id":32345,"name":"Alàs i Cerc","latitude":"42.35000000","longitude":"1.51667000"},{"id":151734,"name":"Albagés L","latitude":"0.00000000","longitude":"0.00000000"},{"id":151735,"name":"Albatàrrec","latitude":"0.00000000","longitude":"0.00000000"},{"id":32043,"name":"Albesa","latitude":"41.75282000","longitude":"0.65936000"},{"id":151736,"name":"Albi L","latitude":"0.00000000","longitude":"0.00000000"},{"id":32086,"name":"Alcanó","latitude":"41.48064000","longitude":"0.61659000"},{"id":32089,"name":"Alcarràs","latitude":"41.56667000","longitude":"0.51667000"},{"id":32110,"name":"Alcoletge","latitude":"41.64762000","longitude":"0.69383000"},{"id":32201,"name":"Alfarràs","latitude":"41.81667000","longitude":"0.58333000"},{"id":32207,"name":"Alfés","latitude":"41.52143000","longitude":"0.62050000"},{"id":32218,"name":"Algerri","latitude":"41.81482000","longitude":"0.63633000"},{"id":32228,"name":"Alguaire","latitude":"41.73703000","longitude":"0.58450000"},{"id":151737,"name":"Alins","latitude":"0.00000000","longitude":"0.00000000"},{"id":32259,"name":"Almacelles","latitude":"41.73216000","longitude":"0.43722000"},{"id":151738,"name":"Almatret","latitude":"0.00000000","longitude":"0.00000000"},{"id":32280,"name":"Almenar","latitude":"41.79604000","longitude":"0.56834000"},{"id":151739,"name":"Alòs de Balaguer","latitude":"0.00000000","longitude":"0.00000000"},{"id":32331,"name":"Alpicat","latitude":"41.66570000","longitude":"0.55564000"},{"id":151740,"name":"Alt Àneu","latitude":"0.00000000","longitude":"0.00000000"},{"id":32378,"name":"Anglesola","latitude":"41.65649000","longitude":"1.08286000"},{"id":32422,"name":"Arbeca","latitude":"41.54153000","longitude":"0.92457000"},{"id":151743,"name":"Arres","latitude":"0.00000000","longitude":"0.00000000"},{"id":151744,"name":"Arsèguel","latitude":"0.00000000","longitude":"0.00000000"},{"id":151745,"name":"Artesa de Lleida","latitude":"0.00000000","longitude":"0.00000000"},{"id":32524,"name":"Artesa de Segre","latitude":"41.89467000","longitude":"1.04625000"},{"id":32535,"name":"Aspa","latitude":"41.49472000","longitude":"0.67277000"},{"id":151747,"name":"Avellanes i Santa Linya Les","latitude":"0.00000000","longitude":"0.00000000"},{"id":151748,"name":"Baix Pallars","latitude":"0.00000000","longitude":"0.00000000"},{"id":32619,"name":"Balaguer","latitude":"41.79117000","longitude":"0.81094000"},{"id":151749,"name":"Barbens","latitude":"0.00000000","longitude":"0.00000000"},{"id":151750,"name":"Baronia de Rialb La","latitude":"0.00000000","longitude":"0.00000000"},{"id":151752,"name":"Bassella","latitude":"0.00000000","longitude":"0.00000000"},{"id":151753,"name":"Bausen","latitude":"0.00000000","longitude":"0.00000000"},{"id":151754,"name":"Belianes","latitude":"0.00000000","longitude":"0.00000000"},{"id":151756,"name":"Bell-lloc dUrgell","latitude":"0.00000000","longitude":"0.00000000"},{"id":151828,"name":"Bellaguarda","latitude":"0.00000000","longitude":"0.00000000"},{"id":151755,"name":"Bellcaire dUrgell","latitude":"0.00000000","longitude":"0.00000000"},{"id":151757,"name":"Bellmunt dUrgell","latitude":"0.00000000","longitude":"0.00000000"},{"id":32743,"name":"Bellpuig","latitude":"41.62595000","longitude":"1.01144000"},{"id":32745,"name":"Bellver de Cerdanya","latitude":"42.36667000","longitude":"1.78333000"},{"id":32746,"name":"Bellvís","latitude":"41.67269000","longitude":"0.81768000"},{"id":151758,"name":"Benavent de Segrià","latitude":"0.00000000","longitude":"0.00000000"},{"id":151759,"name":"Biosca","latitude":"0.00000000","longitude":"0.00000000"},{"id":151761,"name":"Bòrdes Es","latitude":"0.00000000","longitude":"0.00000000"},{"id":151762,"name":"Borges Blanques Les","latitude":"0.00000000","longitude":"0.00000000"},{"id":151763,"name":"Bossòst","latitude":"0.00000000","longitude":"0.00000000"},{"id":151760,"name":"Bovera","latitude":"0.00000000","longitude":"0.00000000"},{"id":151764,"name":"Cabanabona","latitude":"0.00000000","longitude":"0.00000000"},{"id":151765,"name":"Cabó","latitude":"0.00000000","longitude":"0.00000000"},{"id":33163,"name":"Camarasa","latitude":"41.87486000","longitude":"0.87814000"},{"id":151766,"name":"Canejan","latitude":"0.00000000","longitude":"0.00000000"},{"id":151884,"name":"Castell de Mur","latitude":"0.00000000","longitude":"0.00000000"},{"id":151767,"name":"Castellar de la Ribera","latitude":"0.00000000","longitude":"0.00000000"},{"id":151768,"name":"Castelldans","latitude":"0.00000000","longitude":"0.00000000"},{"id":33429,"name":"Castellnou de Seana","latitude":"41.64802000","longitude":"0.97093000"},{"id":151769,"name":"Castelló de Farfanya","latitude":"0.00000000","longitude":"0.00000000"},{"id":33434,"name":"Castellserà","latitude":"41.75000000","longitude":"1.00000000"},{"id":151770,"name":"Cava","latitude":"0.00000000","longitude":"0.00000000"},{"id":33595,"name":"Cervera","latitude":"41.67003000","longitude":"1.27210000"},{"id":151771,"name":"Cervià de les Garrigues","latitude":"0.00000000","longitude":"0.00000000"},{"id":33700,"name":"Ciutadilla","latitude":"41.56113000","longitude":"1.13935000"},{"id":151772,"name":"Clariana de Cardener","latitude":"0.00000000","longitude":"0.00000000"},{"id":151773,"name":"Cogul El","latitude":"0.00000000","longitude":"0.00000000"},{"id":33730,"name":"Coll de Nargó","latitude":"42.17473000","longitude":"1.31694000"},{"id":151821,"name":"Coma i la Pedra La","latitude":"0.00000000","longitude":"0.00000000"},{"id":151820,"name":"Conca de Dalt","latitude":"0.00000000","longitude":"0.00000000"},{"id":33777,"name":"Corbins","latitude":"41.68333000","longitude":"0.70000000"},{"id":33848,"name":"Cubells","latitude":"41.85062000","longitude":"0.95900000"},{"id":151774,"name":"Espluga Calba L","latitude":"0.00000000","longitude":"0.00000000"},{"id":34132,"name":"Espot","latitude":"42.57838000","longitude":"1.08666000"},{"id":151778,"name":"Estamariu","latitude":"0.00000000","longitude":"0.00000000"},{"id":151775,"name":"Estaràs","latitude":"0.00000000","longitude":"0.00000000"},{"id":151776,"name":"Esterri dÀneu","latitude":"0.00000000","longitude":"0.00000000"},{"id":151777,"name":"Esterri de Cardós","latitude":"0.00000000","longitude":"0.00000000"},{"id":34166,"name":"Farrera","latitude":"42.49654000","longitude":"1.27216000"},{"id":151888,"name":"Fígols i Alinyà","latitude":"0.00000000","longitude":"0.00000000"},{"id":151779,"name":"Floresta La","latitude":"0.00000000","longitude":"0.00000000"},{"id":151780,"name":"Fondarella","latitude":"0.00000000","longitude":"0.00000000"},{"id":151781,"name":"Foradada","latitude":"0.00000000","longitude":"0.00000000"},{"id":151782,"name":"Fuliola La","latitude":"0.00000000","longitude":"0.00000000"},{"id":34364,"name":"Fulleda","latitude":"41.46334000","longitude":"1.02395000"},{"id":151783,"name":"Gavet de la Conca","latitude":"0.00000000","longitude":"0.00000000"},{"id":151892,"name":"Gimenells i el Pla de la Font","latitude":"0.00000000","longitude":"0.00000000"},{"id":34479,"name":"Golmés","latitude":"41.63354000","longitude":"0.93125000"},{"id":34565,"name":"Gósol","latitude":"42.23697000","longitude":"1.66010000"},{"id":151784,"name":"Granadella La","latitude":"0.00000000","longitude":"0.00000000"},{"id":151785,"name":"Granja dEscarp La","latitude":"0.00000000","longitude":"0.00000000"},{"id":151786,"name":"Granyanella","latitude":"0.00000000","longitude":"0.00000000"},{"id":151788,"name":"Granyena de les Garrigues","latitude":"0.00000000","longitude":"0.00000000"},{"id":151787,"name":"Granyena de Segarra","latitude":"0.00000000","longitude":"0.00000000"},{"id":34549,"name":"Guimerà","latitude":"41.56450000","longitude":"1.18528000"},{"id":151883,"name":"Guingueta dÀneu La","latitude":"0.00000000","longitude":"0.00000000"},{"id":151789,"name":"Guissona","latitude":"0.00000000","longitude":"0.00000000"},{"id":151790,"name":"Guixers","latitude":"0.00000000","longitude":"0.00000000"},{"id":151793,"name":"Isona i Conca Dellà","latitude":"0.00000000","longitude":"0.00000000"},{"id":151791,"name":"Ivars de Noguera","latitude":"0.00000000","longitude":"0.00000000"},{"id":151792,"name":"Ivars dUrgell","latitude":"0.00000000","longitude":"0.00000000"},{"id":34777,"name":"Ivorra","latitude":"41.76667000","longitude":"1.40000000"},{"id":151890,"name":"Josa i Tuixén","latitude":"0.00000000","longitude":"0.00000000"},{"id":34831,"name":"Juncosa","latitude":"41.37033000","longitude":"0.77650000"},{"id":34832,"name":"Juneda","latitude":"41.54847000","longitude":"0.82451000"},{"id":35034,"name":"Les","latitude":"42.81076000","longitude":"0.71050000"},{"id":35056,"name":"Linyola","latitude":"41.70000000","longitude":"0.91667000"},{"id":151794,"name":"Lladorre","latitude":"0.00000000","longitude":"0.00000000"},{"id":151795,"name":"Lladurs","latitude":"0.00000000","longitude":"0.00000000"},{"id":151796,"name":"Llardecans","latitude":"0.00000000","longitude":"0.00000000"},{"id":151797,"name":"Llavorsí","latitude":"0.00000000","longitude":"0.00000000"},{"id":35074,"name":"Lleida","latitude":"41.61674000","longitude":"0.62218000"},{"id":35078,"name":"Lles de Cerdanya","latitude":"42.39025000","longitude":"1.68692000"},{"id":35079,"name":"Llimiana","latitude":"42.07476000","longitude":"0.91621000"},{"id":151798,"name":"Llobera","latitude":"0.00000000","longitude":"0.00000000"},{"id":151802,"name":"Maials","latitude":"0.00000000","longitude":"0.00000000"},{"id":151799,"name":"Maldà","latitude":"0.00000000","longitude":"0.00000000"},{"id":151800,"name":"Massalcoreig","latitude":"0.00000000","longitude":"0.00000000"},{"id":151801,"name":"Massoteres","latitude":"0.00000000","longitude":"0.00000000"},{"id":151803,"name":"Menàrguens","latitude":"0.00000000","longitude":"0.00000000"},{"id":35444,"name":"Miralcamp","latitude":"41.60516000","longitude":"0.87987000"},{"id":35486,"name":"Mollerussa","latitude":"41.63333000","longitude":"0.90000000"},{"id":151804,"name":"Molsosa La","latitude":"0.00000000","longitude":"0.00000000"},{"id":151806,"name":"Montellà i Martinet","latitude":"0.00000000","longitude":"0.00000000"},{"id":151807,"name":"Montferrer i Castellbò","latitude":"0.00000000","longitude":"0.00000000"},{"id":151805,"name":"Montgai","latitude":"0.00000000","longitude":"0.00000000"},{"id":151809,"name":"Montoliu de Lleida","latitude":"0.00000000","longitude":"0.00000000"},{"id":151808,"name":"Montoliu de Segarra","latitude":"0.00000000","longitude":"0.00000000"},{"id":151810,"name":"Montornès de Segarra","latitude":"0.00000000","longitude":"0.00000000"},{"id":151811,"name":"Nalec","latitude":"0.00000000","longitude":"0.00000000"},{"id":151741,"name":"Naut Aran","latitude":"0.00000000","longitude":"0.00000000"},{"id":151812,"name":"Navès","latitude":"0.00000000","longitude":"0.00000000"},{"id":151813,"name":"Odèn","latitude":"0.00000000","longitude":"0.00000000"},{"id":35880,"name":"Oliana","latitude":"42.06895000","longitude":"1.31353000"},{"id":151814,"name":"Oliola","latitude":"0.00000000","longitude":"0.00000000"},{"id":35883,"name":"Olius","latitude":"42.01035000","longitude":"1.56460000"},{"id":151815,"name":"Oluges Les","latitude":"0.00000000","longitude":"0.00000000"},{"id":151816,"name":"Omellons Els","latitude":"0.00000000","longitude":"0.00000000"},{"id":151817,"name":"Omells de na Gaia Els","latitude":"0.00000000","longitude":"0.00000000"},{"id":151818,"name":"Organyà","latitude":"0.00000000","longitude":"0.00000000"},{"id":35968,"name":"Os de Balaguer","latitude":"41.87314000","longitude":"0.72017000"},{"id":35974,"name":"Ossó de Sió","latitude":"41.75485000","longitude":"1.15900000"},{"id":151819,"name":"Palau dAnglesola El","latitude":"0.00000000","longitude":"0.00000000"},{"id":151822,"name":"Penelles","latitude":"0.00000000","longitude":"0.00000000"},{"id":151823,"name":"Peramola","latitude":"0.00000000","longitude":"0.00000000"},{"id":151824,"name":"Pinell de Solsonès","latitude":"0.00000000","longitude":"0.00000000"},{"id":151825,"name":"Pinós","latitude":"0.00000000","longitude":"0.00000000"},{"id":151891,"name":"Plans de Sió Els","latitude":"0.00000000","longitude":"0.00000000"},{"id":151826,"name":"Poal El","latitude":"0.00000000","longitude":"0.00000000"},{"id":151827,"name":"Pobla de Cérvoles La","latitude":"0.00000000","longitude":"0.00000000"},{"id":151829,"name":"Pobla de Segur La","latitude":"0.00000000","longitude":"0.00000000"},{"id":151742,"name":"Pont de Bar El","latitude":"0.00000000","longitude":"0.00000000"},{"id":151830,"name":"Pont de Suert El","latitude":"0.00000000","longitude":"0.00000000"},{"id":36275,"name":"Ponts","latitude":"41.91607000","longitude":"1.18515000"},{"id":151831,"name":"Portella La","latitude":"0.00000000","longitude":"0.00000000"},{"id":151832,"name":"Prats i Sansor","latitude":"0.00000000","longitude":"0.00000000"},{"id":151833,"name":"Preixana","latitude":"0.00000000","longitude":"0.00000000"},{"id":151834,"name":"Preixens","latitude":"0.00000000","longitude":"0.00000000"},{"id":151835,"name":"Prullans","latitude":"0.00000000","longitude":"0.00000000"},{"id":151836,"name":"Puiggròs","latitude":"0.00000000","longitude":"0.00000000"},{"id":151837,"name":"Puigverd dAgramunt","latitude":"0.00000000","longitude":"0.00000000"},{"id":151838,"name":"Puigverd de Lleida","latitude":"0.00000000","longitude":"0.00000000"},{"id":151839,"name":"Rialp","latitude":"0.00000000","longitude":"0.00000000"},{"id":151885,"name":"Ribera dOndara","latitude":"0.00000000","longitude":"0.00000000"},{"id":151840,"name":"Ribera dUrgellet","latitude":"0.00000000","longitude":"0.00000000"},{"id":151841,"name":"Riner","latitude":"0.00000000","longitude":"0.00000000"},{"id":151893,"name":"Riu de Cerdanya","latitude":"0.00000000","longitude":"0.00000000"},{"id":151842,"name":"Rosselló","latitude":"0.00000000","longitude":"0.00000000"},{"id":151843,"name":"Salàs de Pallars","latitude":"0.00000000","longitude":"0.00000000"},{"id":151844,"name":"Sanaüja","latitude":"0.00000000","longitude":"0.00000000"},{"id":151848,"name":"Sant Esteve de la Sarga","latitude":"0.00000000","longitude":"0.00000000"},{"id":151845,"name":"Sant Guim de Freixenet","latitude":"0.00000000","longitude":"0.00000000"},{"id":151849,"name":"Sant Guim de la Plana","latitude":"0.00000000","longitude":"0.00000000"},{"id":151846,"name":"Sant Llorenç de Morunys","latitude":"0.00000000","longitude":"0.00000000"},{"id":151882,"name":"Sant Martí de Riucorb","latitude":"0.00000000","longitude":"0.00000000"},{"id":151847,"name":"Sant Ramon","latitude":"0.00000000","longitude":"0.00000000"},{"id":151851,"name":"Sarroca de Bellera","latitude":"0.00000000","longitude":"0.00000000"},{"id":151850,"name":"Sarroca de Lleida","latitude":"0.00000000","longitude":"0.00000000"},{"id":151852,"name":"Senterada","latitude":"0.00000000","longitude":"0.00000000"},{"id":151746,"name":"Sentiu de Sió La","latitude":"0.00000000","longitude":"0.00000000"},{"id":37227,"name":"Seròs","latitude":"41.46667000","longitude":"0.41667000"},{"id":151853,"name":"Seu dUrgell La","latitude":"0.00000000","longitude":"0.00000000"},{"id":37242,"name":"Sidamon","latitude":"41.63333000","longitude":"0.83333000"},{"id":151854,"name":"Soleràs El","latitude":"0.00000000","longitude":"0.00000000"},{"id":37285,"name":"Solsona","latitude":"41.99395000","longitude":"1.51706000"},{"id":151855,"name":"Soriguera","latitude":"0.00000000","longitude":"0.00000000"},{"id":37304,"name":"Sort","latitude":"42.41319000","longitude":"1.13045000"},{"id":37308,"name":"Soses","latitude":"41.53333000","longitude":"0.48333000"},{"id":151856,"name":"Sudanell","latitude":"0.00000000","longitude":"0.00000000"},{"id":151857,"name":"Sunyer","latitude":"0.00000000","longitude":"0.00000000"},{"id":151858,"name":"Talarn","latitude":"0.00000000","longitude":"0.00000000"},{"id":151859,"name":"Talavera","latitude":"0.00000000","longitude":"0.00000000"},{"id":37661,"name":"Tàrrega","latitude":"41.64704000","longitude":"1.13957000"},{"id":151860,"name":"Tarrés","latitude":"0.00000000","longitude":"0.00000000"},{"id":151861,"name":"Tarroja de Segarra","latitude":"0.00000000","longitude":"0.00000000"},{"id":37665,"name":"Térmens","latitude":"41.71667000","longitude":"0.76667000"},{"id":151862,"name":"Tírvia","latitude":"0.00000000","longitude":"0.00000000"},{"id":37432,"name":"Tiurana","latitude":"41.97527000","longitude":"1.25608000"},{"id":151863,"name":"Torà","latitude":"0.00000000","longitude":"0.00000000"},{"id":151864,"name":"Torms Els","latitude":"0.00000000","longitude":"0.00000000"},{"id":37472,"name":"Tornabous","latitude":"41.70117000","longitude":"1.05384000"},{"id":151866,"name":"Torre de Cabdella La","latitude":"0.00000000","longitude":"0.00000000"},{"id":151869,"name":"Torre-serona","latitude":"0.00000000","longitude":"0.00000000"},{"id":151865,"name":"Torrebesses","latitude":"0.00000000","longitude":"0.00000000"},{"id":37531,"name":"Torrefarrera","latitude":"41.67318000","longitude":"0.60671000"},{"id":151887,"name":"Torrefeta i Florejacs","latitude":"0.00000000","longitude":"0.00000000"},{"id":151867,"name":"Torregrossa","latitude":"0.00000000","longitude":"0.00000000"},{"id":151868,"name":"Torrelameu","latitude":"0.00000000","longitude":"0.00000000"},{"id":37576,"name":"Torres de Segre","latitude":"41.53399000","longitude":"0.51420000"},{"id":37628,"name":"Tremp","latitude":"42.16703000","longitude":"0.89487000"},{"id":151751,"name":"Vall de Boí La","latitude":"0.00000000","longitude":"0.00000000"},{"id":151881,"name":"Vall de Cardós","latitude":"0.00000000","longitude":"0.00000000"},{"id":37840,"name":"Vallbona de les Monges","latitude":"41.52631000","longitude":"1.08872000"},{"id":37858,"name":"Vallfogona de Balaguer","latitude":"41.75211000","longitude":"0.81385000"},{"id":151886,"name":"Valls dAguilar Les","latitude":"0.00000000","longitude":"0.00000000"},{"id":151870,"name":"Valls de Valira Les","latitude":"0.00000000","longitude":"0.00000000"},{"id":151889,"name":"Vansa i Fórnols La","latitude":"0.00000000","longitude":"0.00000000"},{"id":37950,"name":"Verdú","latitude":"41.61057000","longitude":"1.14284000"},{"id":151871,"name":"Vielha e Mijaran","latitude":"0.00000000","longitude":"0.00000000"},{"id":151878,"name":"Vila-sana","latitude":"0.00000000","longitude":"0.00000000"},{"id":151872,"name":"Vilagrassa","latitude":"0.00000000","longitude":"0.00000000"},{"id":151873,"name":"Vilaller","latitude":"0.00000000","longitude":"0.00000000"},{"id":151874,"name":"Vilamòs","latitude":"0.00000000","longitude":"0.00000000"},{"id":37995,"name":"Vilanova de Bellpuig","latitude":"41.61379000","longitude":"0.96432000"},{"id":151880,"name":"Vilanova de la Barca","latitude":"0.00000000","longitude":"0.00000000"},{"id":151875,"name":"Vilanova de lAguda","latitude":"0.00000000","longitude":"0.00000000"},{"id":151876,"name":"Vilanova de Meià","latitude":"0.00000000","longitude":"0.00000000"},{"id":151877,"name":"Vilanova de Segrià","latitude":"0.00000000","longitude":"0.00000000"},{"id":151879,"name":"Vilosell El","latitude":"0.00000000","longitude":"0.00000000"},{"id":38389,"name":"Vinaixa","latitude":"41.43333000","longitude":"0.98333000"}]