[{"id":130258,"name":"Huyện Chư Păh","latitude":"14.15941000","longitude":"107.98411000"},{"id":130257,"name":"Huyện Chư Prông","latitude":"13.59976000","longitude":"107.81099000"},{"id":130259,"name":"Huyện Chư Sê","latitude":"13.74254000","longitude":"108.08663000"},{"id":130549,"name":"Huyện Đức Cơ","latitude":"13.78454000","longitude":"107.66970000"},{"id":130320,"name":"Huyện Ia Grai","latitude":"13.98937000","longitude":"107.73740000"},{"id":130322,"name":"Huyện KBang","latitude":"14.30506000","longitude":"108.49779000"},{"id":130335,"name":"Huyện Kông Chro","latitude":"13.73519000","longitude":"108.59697000"},{"id":130334,"name":"Huyện Krông Pa","latitude":"13.23152000","longitude":"108.65494000"},{"id":130358,"name":"Huyện Mang Yang","latitude":"13.92840000","longitude":"108.30246000"},{"id":130583,"name":"Pleiku","latitude":"13.98333000","longitude":"108.00000000"}]